{
	"locations": [
		{
			"id": "ceh-toowoomba",
			"types": ["store"],
			"name": "Command Elite Hobbies Toowoomba",
			"coordinates": { "lat": -27.565835, "lng": 151.9522919 },
			"state": "QLD",
			"website": "https://www.commandelitehobbies.com",
			"storeId": "ceh",
			"googleMapsUrl": "https://maps.app.goo.gl/nn9c7jWjXhYX82617"
		},
		{
			"id": "gbu-southport",
			"types": ["store"],
			"name": "Gel Ball Undercover",
			"coordinates": { "lat": -27.9730123, "lng": 153.3878239 },
			"state": "QLD",
			"website": "https://www.gelballundercover.com.au",
			"storeId": "gbu",
			"googleMapsUrl": "https://maps.app.goo.gl/wKA6WC9fYQZeWoR48"
		},
		{
			"id": "aa-surfers",
			"types": ["store"],
			"name": "Azraels Armoury",
			"coordinates": { "lat": -27.9981146, "lng": 153.4281932 },
			"state": "QLD",
			"website": "https://www.azraelsarmoury.com",
			"storeId": "aa",
			"googleMapsUrl": "https://maps.app.goo.gl/PmDxt8DAfzUUqa6LA"
		},
		{
			"id": "teh-yatala",
			"types": ["store", "field"],
			"name": "Tactical Edge Hobbies / Gelsoft Australia",
			"coordinates": { "lat": -27.7438382, "lng": 153.2235419 },
			"state": "QLD",
			"website": "https://tacticaledge.com.au",
			"fieldWebsite": "https://gelsoftaustralia.com.au",
			"storeId": "teh",
			"googleMapsUrl": "https://maps.app.goo.gl/PFzw5z8G1kpX5PWE6"
		},
		{
			"id": "xft-meadowbrook",
			"types": ["store"],
			"name": "X-Force Tactical Meadowbrook",
			"coordinates": { "lat": -27.6593942, "lng": 153.1341437 },
			"state": "QLD",
			"website": "https://x-forcetactical.com.au",
			"storeId": "xft",
			"googleMapsUrl": "https://maps.app.goo.gl/PgFkzwGMeGZWSc26A"
		},
		{
			"id": "xft-northlakes",
			"types": ["store"],
			"name": "X-Force Tactical North Lakes",
			"coordinates": { "lat": -27.222009, "lng": 152.9993978 },
			"state": "QLD",
			"website": "https://x-forcetactical.com.au",
			"storeId": "xft",
			"googleMapsUrl": "https://maps.app.goo.gl/oAxCJyYHnpp7VTot7"
		},
		{
			"id": "ah-yeerongpilly",
			"types": ["store"],
			"name": "Armoured Heaven",
			"coordinates": { "lat": -27.5764235, "lng": 153.0259 },
			"state": "QLD",
			"website": "https://armouredheaven.com.au",
			"storeId": "ah",
			"googleMapsUrl": "https://maps.app.goo.gl/3tzmhgTTpJDfBak8A"
		},
		{
			"id": "szt-salisbury",
			"types": ["store"],
			"name": "Safari Zoomer Tactical",
			"coordinates": { "lat": -34.7882007, "lng": 138.6454449 },
			"state": "SA",
			"website": "https://safarizoomertactical.com",
			"storeId": "szt",
			"googleMapsUrl": "https://maps.app.goo.gl/gJTgvk7BjRAGZ1eL7"
		},
		{
			"id": "ih-helensvale",
			"types": ["store"],
			"name": "iHobby",
			"coordinates": { "lat": -27.9377957, "lng": 153.3373536 },
			"state": "QLD",
			"website": "https://www.ihobby.com.au",
			"storeId": "ih",
			"googleMapsUrl": "https://maps.app.goo.gl/QvvU6xDGX2AWDY5u5"
		},
		{
			"id": "ugb-forestglen",
			"types": ["store", "field"],
			"name": "Urban Gelball",
			"coordinates": { "lat": -26.689291, "lng": 153.0056872 },
			"state": "QLD",
			"website": "https://www.urbangelball.com.au",
			"storeId": "ugb",
			"googleMapsUrl": "https://maps.app.goo.gl/JNv5k8tCcMhYeE6m7"
		},
		{
			"id": "gelcity-sunnybank",
			"types": ["field"],
			"name": "Gel City",
			"coordinates": { "lat": -27.5886483, "lng": 153.0454481 },
			"state": "QLD",
			"website": "https://www.gelcity.com.au",
			"googleMapsUrl": "https://maps.app.goo.gl/SRACtrST2hKLyqMe7"
		},
		{
			"id": "nuketown-beenleigh",
			"types": ["field"],
			"name": "Nuketown GC",
			"coordinates": { "lat": -27.7231297, "lng": 153.2138066 },
			"state": "QLD",
			"website": "https://nuketowngc.com",
			"googleMapsUrl": "https://maps.app.goo.gl/74MdGJAJ89RFzHrU7"
		},
		{
			"id": "blacksite-hillcrest",
			"types": ["field"],
			"name": "Blacksite Gel Ball",
			"coordinates": { "lat": -27.6610758, "lng": 153.0336759 },
			"state": "QLD",
			"website": "https://www.blacksitegelball.com.au",
			"googleMapsUrl": "https://maps.app.goo.gl/ZxRWGBA5E53nEqo76"
		},
		{
			"id": "donnybrook-gelballers",
			"types": ["field"],
			"name": "Donnybrook Gel Ballers",
			"coordinates": { "lat": -27.0118767, "lng": 153.0448911 },
			"state": "QLD",
			"website": "https://www.donnybrookgelballers.com",
			"googleMapsUrl": "https://maps.app.goo.gl/JtSccHUSQge2BEYi9"
		},
		{
			"id": "mangohill-skirmish",
			"types": ["field"],
			"name": "Mango Hill Skirmish",
			"coordinates": { "lat": -27.2386611, "lng": 153.0468307 },
			"state": "QLD",
			"website": "https://www.mangohillskirmish.com",
			"googleMapsUrl": "https://maps.app.goo.gl/MBFgLJWCWeWjEWs37"
		},
		{
			"id": "crossfire-donnybrook",
			"types": ["field"],
			"name": "Crossfire Skirmish Sports",
			"coordinates": { "lat": -26.995179, "lng": 153.0473201 },
			"state": "QLD",
			"website": "https://www.crossfireskirmishsports.com.au",
			"googleMapsUrl": "https://maps.app.goo.gl/W4HBSxyCutH9wW3u7"
		},
		{
			"id": "specops-ipswich",
			"types": ["field"],
			"name": "Spec Ops Paintball",
			"coordinates": { "lat": -27.6112765, "lng": 152.7654243 },
			"state": "QLD",
			"website": "https://specopspaintball.com.au",
			"googleMapsUrl": "https://maps.app.goo.gl/t28Aku6eaeRHUzFk8"
		}
	]
}
